{"_id":{"$oid":"61bb2874bd4ef36fb136d769"},"id":2931,"name":"Piscine Aspirant Dunand","address":"20, rue Saillard ","zipCode":75014,"lat":48.831699,"lon":2.326708}
{"_id":{"$oid":"61bb2874bd4ef36fb136d76a"},"id":2926,"name":"Piscine Jean Boiteux ex Reuilly","address":"13, rue Henard ","zipCode":75012,"lat":48.841927,"lon":2.389423}
{"_id":{"$oid":"61bb2874bd4ef36fb136d76b"},"id":2932,"name":"Piscine Didot","address":"22, avenue Georges Lafenestre ","zipCode":75014,"lat":48.824276,"lon":2.309616}
{"_id":{"$oid":"61bb2874bd4ef36fb136d76c"},"id":2920,"name":"Piscine Georges Drigny","address":"18, rue Bochart de Saron ","zipCode":75009,"lat":48.881893,"lon":2.342184}
{"_id":{"$oid":"61bb2874bd4ef36fb136d76d"},"id":2933,"name":"Piscine Armand Massard","address":"66 boulevard du Montparnasse ","zipCode":75015,"lat":48.844036,"lon":2.323341}
{"_id":{"$oid":"61bb2874bd4ef36fb136d76e"},"id":2,"name":"Piscine Saint-Merri","address":"16 rue du renard","zipCode":75004,"lat":48.859406,"lon":2.352479}
{"_id":{"$oid":"61bb2874bd4ef36fb136d76f"},"id":2934,"name":"Piscine Blomet","address":"17, rue Blomet ","zipCode":75015,"lat":48.843323,"lon":2.307422}
{"_id":{"$oid":"61bb2874bd4ef36fb136d770"},"id":2927,"name":"Piscine de la Butte aux Cailles","address":"5, place Paul Verlaine ","zipCode":75013,"lat":48.827431,"lon":2.352194}
{"_id":{"$oid":"61bb2874bd4ef36fb136d771"},"id":2937,"name":"Piscine La Plaine","address":"13, rue du Général Guillaumat ","zipCode":75015,"lat":48.827991,"lon":2.292976}
{"_id":{"$oid":"61bb2874bd4ef36fb136d772"},"id":2938,"name":"Piscine René et André Mourlon","address":"19, rue Gaston de Caillavet ","zipCode":75015,"lat":48.848824,"lon":2.284898}
{"_id":{"$oid":"61bb2874bd4ef36fb136d773"},"id":2935,"name":"Piscine Emile Anthoine","address":"9, rue Jean Rey ","zipCode":75015,"lat":48.855381,"lon":2.290917}
{"_id":{"$oid":"61bb2874bd4ef36fb136d774"},"id":2939,"name":"Piscine Henry de Montherlant","address":"30, boulevard Lannes ","zipCode":75016,"lat":48.867092,"lon":2.271985}
{"_id":{"$oid":"61bb2874bd4ef36fb136d775"},"id":2943,"name":"Piscine Hébert","address":"2, rue des Fillettes","zipCode":75018,"lat":48.8940677,"lon":2.3632265}
{"_id":{"$oid":"61bb2874bd4ef36fb136d776"},"id":2940,"name":"Piscine Bernard Lafay","address":"79, rue de la Jonqui�re ","zipCode":75017,"lat":48.894707,"lon":2.318883}
{"_id":{"$oid":"61bb2874bd4ef36fb136d777"},"id":2947,"name":"Piscine Rouvet","address":"1, rue Rouvet ","zipCode":75019,"lat":48.893188,"lon":2.385029}
{"_id":{"$oid":"61bb2874bd4ef36fb136d778"},"id":2944,"name":"Piscine des Amiraux","address":"6, rue Hermann Lachapelle ","zipCode":75018,"lat":48.894421,"lon":2.350622}
{"_id":{"$oid":"61bb2874bd4ef36fb136d779"},"id":2946,"name":"Piscine Mathis","address":"15, rue Mathis ","zipCode":75019,"lat":48.890816,"lon":2.375107}
{"_id":{"$oid":"61bb2874bd4ef36fb136d77a"},"id":2942,"name":"Piscine Bertrand Dauvin","address":"12, rue René Binet ","zipCode":75018,"lat":48.899296,"lon":2.342513}
{"_id":{"$oid":"61bb2874bd4ef36fb136d77b"},"id":2919,"name":"Piscine Saint-Germain","address":"12, rue Lobineau ","zipCode":75006,"lat":48.851669,"lon":2.335931}
{"_id":{"$oid":"61bb2874bd4ef36fb136d77c"},"id":2923,"name":"Piscine Ch�teau-Landon","address":"31, rue du ch�teau-Landon ","zipCode":75010,"lat":48.883221,"lon":2.363909}
{"_id":{"$oid":"61bb2874bd4ef36fb136d77d"},"id":2921,"name":"Piscine Paul Valeyre","address":"24, rue de Rochechouart","zipCode":75009,"lat":48.8781484,"lon":2.34494889999996}
{"_id":{"$oid":"61bb2874bd4ef36fb136d77e"},"id":2929,"name":"Piscine Dunois","address":"70, rue Dunois ","zipCode":75013,"lat":48.832973,"lon":2.366437}
{"_id":{"$oid":"61bb2874bd4ef36fb136d77f"},"id":2924,"name":"Piscine Georges Rigal","address":"115, boulevard de Charonne ","zipCode":75011,"lat":48.856609,"lon":2.394056}
{"_id":{"$oid":"61bb2874bd4ef36fb136d780"},"id":4012,"name":"Piscine Alfred Nakache","address":"4-12, rue Dénoyez ","zipCode":75020,"lat":48.871498,"lon":2.378612}
{"_id":{"$oid":"61bb2874bd4ef36fb136d781"},"id":3325,"name":"Piscine Jean Taris","address":"16, rue Thouin","zipCode":75005,"lat":48.8447257,"lon":2.34794139999997}
{"_id":{"$oid":"61bb2874bd4ef36fb136d782"},"id":2925,"name":"Piscine de la Cour des Lions","address":"9, rue Alphonse Baudin ","zipCode":75011,"lat":48.860626,"lon":2.370507}
{"_id":{"$oid":"61bb2874bd4ef36fb136d783"},"id":3324,"name":"Piscine d'Auteuil","address":"1, Route des Lacs à Passy","zipCode":75016,"lat":48.8569791019021,"lon":2.26038931586913}
{"_id":{"$oid":"61bb2874bd4ef36fb136d784"},"id":2928,"name":"Piscine Château des Rentiers","address":"184, rue du Château des Rentiers ","zipCode":75013,"lat":48.830406,"lon":2.3619}
{"_id":{"$oid":"61bb2874bd4ef36fb136d785"},"id":17349,"name":"Piscine Beaujon","address":"7 Allée Louis de Fun�s","zipCode":75008,"lat":48.8765928,"lon":2.30700160000004}
{"_id":{"$oid":"61bb2874bd4ef36fb136d786"},"id":2949,"name":"Piscine Georges Vallerey","address":"148, avenue Gambetta ","zipCode":75020,"lat":48.875381,"lon":2.405829}
{"_id":{"$oid":"61bb2874bd4ef36fb136d787"},"id":5041,"name":"Piscine Catherine Lagatu ex Parmentier","address":"155 avenue Parmentier","zipCode":75010,"lat":48.871693,"lon":2.369786}
